resno,location_id,locationDetail_id,res_nm,addr,desc,lat,lng,tel,date,member_id
1,1,1,까브테라스,서울특별시 강남구 강남대로156길 27 (신사동),"감태페스토, 영양부추와 같은 한식 식재료를 잘 응용한 파스타 전문점. 까브라는 상호대로 동굴처럼 꾸며둔 통로를 지나면 바깥을 바라보며 식사를 할 수 있도록 통창으로 된 테라스 자리가 있다. 런치에는 9천9백원이라는 파격적인 가격으로 파스타를 즐길 수 있다.",37.5187098,127.0214492,02-6207-6670,2026-01-06 00:00:00,aaa
2,1,2,몽고네,서울특별시 강남구 선릉로155길 5 (신사동) 1층,풍미 좋은 파스타로 유명한 이탈리안 레스토랑. 해산물의 풍미를 느낄 수 있는 봉골레파스타 등이 인기 메뉴며 어란파스타는 스페셜플레이트로 선보인다.,37.5251096,127.0390868,02-540-0680,2026-01-06 00:00:00,aaa
3,1,2,h450,서울특별시 강남구 압구정로29길 21 (압구정동) 현대백화점압구정본점 컬처파크 1층,"현대백화점에서 직접 운영하는 캐주얼한 이탈리안 레스토랑이다. 시그니처 메뉴인 해산물뚝배기파스타는 신선한 해산물과 진한 토마토소스로 맛을 내며, 국물처럼 떠먹을 수 있는 것이 특징이다. 코스 주문시 프라이빗 룸도 이용 할 수 있다.",37.5286573,127.0276853,02-543-1450,2026-01-06 00:00:00,aaa
4,1,2,그랑씨엘,서울특별시 강남구 도산대로45길 16-6 (신사동) 1층,"이탈리아 가정식을 표방하는 레스토랑. 짭조름한 안초비오일파스타가 인기 메뉴며, 주말에는 가볍게 브런치를 즐기려는 젊은이들로 북적거린다. 노란색 외벽과 오픈된 테라스가 유럽의 노천 레스토랑에 온 듯한 느낌이다.",37.5233509,127.0358238,02-548-0283,2026-01-06 00:00:00,aaa
5,1,2,이국도산,서울특별시 강남구 언주로164길 17 (신사동),"생면 파스타 전문점. 가장 한국적인 식재료인 전복, 갈비찜, 곱창이 들어간 파스타를 맛볼 수 있으며 구운대파파스타가 시그니처 메뉴. 저녁에는 주류 주문이 필수다. 인테리어와 기물에도 상당히 신경을 쓴 흔적이 엿보인다.",37.5255584,127.0349401,02-542-0950,2026-01-06 00:00:00,aaa
6,1,2,일리조,서울특별시 강남구 압구정로42길 23 (신사동),"클래식 이탈리안 레스토랑. 전채요리로는 문어와 감자, 루콜라가 들어간 문어와감자샐러드를 추천한다. 알리오올리오, 아마트리치아나, 메제마니케파스타인 타르투포 등 파스타의 퀄리티가 높은 편이다. 나폴리 파스타 명가인 라파브리카의 파스타면을 사용한다. 제주흑돼지뼈등심스테이크도 먹어볼 만하다.",37.5272764,127.0352359,02-544-1980,2026-01-06 00:00:00,aaa
7,1,3,미피아체,서울특별시 강남구 도산대로70길 34 (청담동),"청담동에서 가장 오래된 레스토랑 중의 하나로, 20년 세월 동안 변함없는 맛을 유지하고 있다. 전채, 메인, 디저트 모두 손색없이 훌륭하며 계절에 따라, 트렌드에 따라 메뉴가 자주 바뀌어 다양한 즐거움을 준다. 미리 주문하면 맛볼 수 있는 피오렌티나 스테이크도 명성이 자자하다. 2023년 8월 지금의 자리로 이전하여 분위기가 더욱 좋아졌다. 테라스 자리를 이용할 것을 추천.",37.5213079,127.0449275,02-516-6317,2026-01-06 00:00:00,aaa
8,1,3,뻬를라,서울특별시 강남구 도산대로55길 43 (청담동) 세정빌딩 1층,"참나무 장작을 사용하여 굽는 나폴리 정통 화덕피자를 메인으로 선보이는 이탈리안 레스토랑. 마르게리타, 부라타에크루도 등 피자 메뉴가 매우 다양하다. 피자 외에도 아라비아타, 뇨키 등 클래식한 이탈리안 메뉴도 맛볼 수 있다.",37.5264979,127.0408843,02-6053-6330,2026-01-06 00:00:00,aaa
9,1,3,페어링룸,서울특별시 강남구 도산대로81길 14 (청담동),"고급스럽고 모던한 분위기의 이탈리안 레스토랑. 메주파스타, 스파이시성게알파스타 등 독특한 파스타를 선보이며 캄파뉴 위에 재료를 풍성하게 올린 메뉴도 인기다.",37.5253495,127.0478264,010-3100-8861,2026-01-06 00:00:00,aaa
10,1,3,토파,서울특별시 강남구 도산대로68길 11 (청담동) 웅찬빌딩 지하 1층,"파스타와 와인을 함께 즐길 수 있는 이탈리안 레스토랑이다. 다양한 종류의 파스타를 선보이며, 전문 소믈리에가 추천하는 와인을 페어링해 즐길 수 있다. 대표 메뉴는 문어를 부드럽게 익혀 감자와 루콜라와 함께 즐기는 시칠리아문어샐러드와 영암어란파스타다.",37.5229073,127.0448735,010-5022-1731,2026-01-06 00:00:00,aaa
11,1,3,주쥬베,서울특별시 강남구 도산대로61길 14 (청담동) 1층,"다채로운 생면 파스타에 와인을 곁들일 수 있는 다이닝 공간이다. 9가지 생면을 직접 보고 메뉴를 고를 수 있다. 사이드 메뉴로 바삭한 칼라마리 튀김을 선택해도 좋으며, 아늑한 분위기에서 근사한 식사를 즐길 수 있다.",37.5247453,127.0430982,02-6959-5696,2026-01-06 00:00:00,aaa
12,1,3,페코리노,서울특별시 강남구 도산대로68길 18 (청담동),"아늑한 분위기의 생면파스타 전문점. 탈리아탈레 면을 사용하여 소스가 진득하게 묻어나는 라구파스타, 달걀 노른자와 관찰레를 이용해서 만든 정통 카르보나라 등 파스타 본연의 맛을 즐길 수 있다. 애피타이저로는 한우홍두깨살을 얇게 썰어서 만든 비텔로토나토를 추천한다.",37.5224625,127.0445177,0507-1421-3517,2026-01-06 00:00:00,aaa
13,1,4,콘체르토,서울특별시 서초구 신반포로43길 26 (잠원동) SKR B/D,"화사한 오렌지색 어닝이 눈에 들어오는 곳. 피자를 메인으로 파스타와 스테이크 등 다양한 양식을 맛볼 수 있는 곳. 피자는 화덕을 사용해 구워낸다. 루콜라, 버팔로치즈 등 재료를 아낌없이 넣은 콘체르토가 시그니처. 피자주문시 꿀과 오일 그리고 칠리소스까지 내어주어 다양한 조합으로 즐길 수 있다.",37.5113756,127.017599,02-511-1757,2026-01-06 00:00:00,aaa
14,1,4,레스토랑핫이슈,서울특별시 강남구 봉은사로 155 (논현동) 호텔카푸치노 17층,"호텔카푸치노 17층 꼭대기 층에 있는 스테이크 하우스로, 서울의 뷰를 감상하면서 멋진 식사를 할 수 있다. 5주간의 웻에이징을 거쳐 그릴에 구운 포터하우스, 티본스테이크가 대표 메뉴. 제철 식재료로 만든 창의적인 요리와 함께 다이닝 코스를 맛볼 수 있다.",37.506801,127.0314853,02-2038-9617,2026-01-06 00:00:00,aaa
15,1,4,파스타트리오,서울특별시 서초구 강남대로 545-15 (반포동) 미주빌딩 1층 102호,"파스타와 리조토 전문점으로, 오일, 크림, 토마토, 로제 소스 등 다양한 맛을 선보인다. 스테이크 메뉴도 선보여 취향에 맞게 통삼겹과 우대갈비 중에 고를 수 있다. 식사 메뉴 주문 시 1천원을 추가하면 크렘브륄레도 맛볼 수 있다.",37.5101626,127.0204914,02-3444-0125,2026-01-06 00:00:00,aaa
16,1,4,바리에가타(신논현점),서울특별시 서초구 사평대로55길 37 (반포동) 실란트로타워,"고급스러운 분위기의 이탈리안 레스토랑. 안티파스티부터 프리미, 세콘디, 그리고 디저트까지 이탈리안 다이닝을 경험할 수 있다. 예약제로만 운영되는 프라이빗한 룸도 마련되어 있다.",37.5056816,127.0220333,02-3444-7375,2026-01-06 00:00:00,aaa
17,1,4,도셰프,서울특별시 서초구 강남대로89길 14 (반포동),"역삼동 도치피자의 논현점. 화덕에서 구워내는 나폴리 스타일 피자가 대표메뉴로, 10여 가지의 종류에 달한다. 고소하면서도 부드러운 감베리크레마 등의 파스타도 인기가 좋다.",37.5094176,127.021093,02-541-1117,2026-01-06 00:00:00,aaa
18,1,5,그란구스또,서울특별시 강남구 삼성로 340 (대치동) 앨포트빌딩 1층,20년 가까이 한결같은 맛을 유지하고 있는 곳이다. 파스타 외에도 해물을 위주로 한 정통 이탈리안 코스 요리를 맛볼 수 있다. 고등어파스타가 시그니처 메뉴. 가격대비 만족도가 뛰어난 곳으로 인기가 높다.,37.501937,127.0595671,02-556-3960,2026-01-06 00:00:00,aaa
19,1,5,마노디셰프(삼성점),서울특별시 강남구 테헤란로87길 21 (삼성동) 동성빌딩 지하 1층,피자와 파스타를 부담없이 즐길 수 있는 이탈리안 비스트로. 블루베리피자가 유명하며 먹물로 된 도우에 나오는 고르곤졸라피자도 독특한 메뉴 중의 하나다. 와인도 250여 종 갖추고 있어서 와인과 같이 즐기기에 좋다.,37.5090435,127.0583118,02-561-9011,2026-01-06 00:00:00,aaa
20,1,5,꾸우덕(선릉본점),서울특별시 강남구 선릉로82길 16 (대치동),파스타와 화로구이 스테이크를 중심으로 하는 이탈리안 레스토랑이다. 꾸덕하고 진한 파스타와 미니 화로에서 따뜻하게 구워 먹는 스테이크가 대표 메뉴다. 와인 콜키지도 가능하다.,37.5028545,127.052476,0507-1334-4340,2026-01-06 00:00:00,aaa
21,1,5,까발로비안코,서울특별시 강남구 삼성로104길 9 (삼성동),"다양한 이탈리아 요리를 만날 수 있는 곳. 파스타와 피자 종류가 다양하며 스테이크도 추천할 만하다. 프라이빗룸도 갖추고 있어 예약을 하면 좋다. 1, 2층에는 모두 테라스가 있으며 1층에서는 라이브 공연을 한다. 단, 일요일에는 공연이 없다.",37.5109664,127.0554149,02-562-9262,2026-01-06 00:00:00,aaa
22,1,6,페리지,서울특별시 강남구 봉은사로68길 6-5 (삼성동) 1충,"직접 만드는 생면 파스타 전문 레스토랑. 미국, 이탈리아에서 실력을 쌓은 신가영, 임홍근 부부 셰프가 운영한다. 테이스팅코스 한 가지로만 운영되며, 다양한 제철 식재료를 활용한 요리와 파스타를 맛볼 수 있다. 주류 주문은 필수다.",37.5112619,127.0494907,010-6550-8912,2026-01-06 00:00:00,aaa
23,1,6,롤리폴리꼬또,서울특별시 강남구 봉은사로51길 23 (논현동) 함하우스 1층,"오뚜기에서 운영하는 플래그십 레스토랑으로, 1층에서는 뇨키, 파스타, 피자 등의 이탈리안 메뉴를 맛볼 수 있다. 게장 오일 파스타, 연어 고추냉이 리조토 등 독특한 메뉴도 선보인다.",37.5113108,127.0423294,0507-1464-9017,2026-01-06 00:00:00,aaa
24,1,7,지아니스나폴리,서울특별시 강남구 논현로94길 15 (역삼동) 지하 1층,"화덕에 구워 제대로 만든 나폴리식 피자와 파스타 등을 부담없는 가격에 즐길 수 있는 곳이다. 추천 메뉴는 나폴리식 조개요리인 주파디봉골레, 새우크림소스 파스타에 치즈를 얹어 화덕에 구워낸 감베리크레마 등이다.",37.502770, 127.037608,02-566-0501,2026-01-06 00:00:00,aaa
25,1,7,더키친일뽀르노(역삼센터필드점),서울특별시 강남구 테헤란로 231 (역삼동)  East 동 1층,"이탈리아 화덕 피자부터 디저트까지 다양한 요리를 한 번에 즐길 수 있는 더키친일뽀르노 역삼센터필드점. 평일 점심에는 뷔페, 저녁에는 다양한 주류와 함께 단품 메뉴를 즐길 수 있다.",37.503653, 127.041797,02-6985-7226,2026-01-06 00:00:00,aaa
26,1,7,마노디셰프(강남점),서울특별시 강남구 테헤란로 129 (역삼동) 빗썸금융타워 지하1층,피자와 파스타를 부담없이 즐길 수 있는 이탈리안 비스트로. 블루베리 피자가 유명하며 먹물로 된 도우에 나오는 고르곤졸라 피자도 독특한 메뉴 중의 하나이다. 와인도 250여 종 갖추고 있어서 와인과 같이 즐기기에도 좋다.,37.500313, 127.032211,02-553-5311,2026-01-06 00:00:00,aaa
27,1,8,우오보,서울특별시 강남구 논현로26길 8 (도곡동),생면파스타가 인기 있는 이탈리안 레스토랑. 파스타 외에도 여러 가지 스타터와 스테이크 등을 맛볼 수 있다. 와인은 모두 이탈리아 와인으로 준비되어 있다. 생면파스타로 이름을 알린 우오보파스타바가 레스토랑으로 변신한 곳이다.,37.4818898,127.0438864,02-2222-2221,2026-01-06 00:00:00,aaa
28,1,8,오스테리아휘름,서울특별시 서초구 언남길 70 (양재동) 제이플러스빌딩 1층,큰 통창에 따스한 햇빛이 스며드는 파스타 전문점이다. 시그니처는 트러플 오일과 한우의 육향이 은은하게 퍼지는 쫀득한 파스타의 한우라구파스타와 트러플 크림 소스의 구운감자뇨키다. 두 메뉴 다 직접 만든 생면과 뇨키를 사용한다.,37.479734, 127.039669,070-8211-2839,2026-01-06 00:00:00,aaa
29,1,8,플로트서울,서울특별시 서초구 강남대로41길 22-8 (서초동),"생면 파스타를 주력으로 선보이는 이탈리안 레스토랑이다. 오픈 주방의 형태로 되어 있어, 셰프가 요리하는 모습을 직접 볼 수 있다. 파스타와 샐러드, 스테이크로 구성된 세트 메뉴를 추천한다.",37.4739563,127.0434896,070-8670-6696,2026-01-06 00:00:00,aaa
30,1,9,라망드셰프,서울특별시 강남구 강남대로62길 18 (역삼동) 맥산빌딩 1층,퓨전 이탈리아 요리를 선보이는 이탈리안 레스토랑. 일본에서 유학한 셰프가 주방을 맡고 있다. 떠먹는 스타일의 햄버그스테이크가 인기 메뉴다. 코스 메뉴는 이틀 전에 예약해야 맛볼 수 있다.,37.490473,127.0330146,02-6338-6984,2026-01-06 00:00:00,aaa
31,1,9,이엘포레스트,서울특별시 강남구 역삼로4길 16 (역삼동) 성우스타우스오피스텔 B109호,이탈리아 현지 생산되는 식재료를 공수하여 좋은 재료를 고집하는 이탈리안 레스토랑이다. 카르보나라수란크림파스타가 인기 메뉴며 와규고르곤졸라크림파스타가 추천 메뉴. 안티모 카푸토 밀가루를 사용하고 직접 끓인 토마토소스로 만든 피자도 유명하다.,37.4992085,127.0439217,02-2039-8323,2026-01-06 00:00:00,aaa
32,1,9,사유의서재(강남점),서울특별시 강남구 강남대로98길 11 (역삼동) 메트로빌딩 5층,"파리 라이브러리에서 영감을 얻은 감성 공간. 서재를 연상키시는 조용한 분위기의 이탈리안 레스토랑으로, 눈 앞에서 대형 치즈 휠에 파스타를 비벼주는 파스타는 맛과 보는 재미 모두 즐길 수 있다. 트러플 풍미가 가득한 트러플 감자뇨키도 별미.",37.5007661,127.0275923,0507-1324-0957,2026-01-06 00:00:00,aaa
33,1,10,에토레,서울특별시 서초구 사평대로 205 (반포동) 파미에스테이션 1층,"캐주얼하게 이탈리아식을 맛볼 수 있는 레스토랑. 샐러드부터 파스타, 스테이크, 디저트까지 한번에 즐길 수 있다. 케이크는 따로 판매도 하고 있다.",37.5044253,127.0077601,02-6282-3000,2026-01-06 00:00:00,aaa
34,1,10,시즌잉,서울특별시 서초구 동광로 82-1 (방배동) 한일빌딩,"앤티크하고 화려한 인테리어의 분위기 좋은 레스토랑. 다양한 코스가 준비되어 있으며, 생면파스타와 시그니처인 뇨끼뽀끼도 맛보기 좋다.  2층에서는 소규모 와인 모임 등도 가능하며, 매달 마지막주에 팝페라 콘서트 등의 공연도 있다.",37.4930896,126.9915737,0507-1432-5553,2026-01-06 00:00:00,aaa
35,1,11,라포레트라토리아,서울특별시 서초구 서초중앙로 188 (서초동) 대림아크로비스타 상가 A동 로비층 111호,도자기 레스토랑으로 알려진 곳. 파스타와 스테이크 등의 이탈리아 요리를 선보인다. 고급스러운 도자기에 음식을 플레이팅해 눈으로 보는 재미와 먹는 재미가 있다. 매장 내에 명품 도자기와 조각상을 진열해두어 디저트와 커피를 마시면서 감상할 수 있다.,37.499045, 127.013014,02-591-0999,2026-01-06 00:00:00,aaa
36,1,11,미테이블(교대직영점),서울특별시 서초구 반포대로30길 44-5 (서초동) 파크뷰빌딩 2층,"갖가지 조합의 파스타와 피자, 샐러드까지 다양하게 준비돼있는 양식당. 성수동에 본점을 두고있다. 스테이크에 랍스터 꼬리가 통으로 더해진 화려한 플레이팅의 매콤한 오일파스타가 시그니처이자 인기 메뉴이다. 대부분의 테이블이 2~4인석으로 이루어져 있으며, 5인 이상 방문 시 예약을 추천.",37.492125, 127.011349,02-588-1142,2026-01-06 00:00:00,aaa
37,1,11,안티카트라토리아,서울특별시 서초구 효령로40길 25 (서초동),이탈리아에서 경력을 쌓은 셰프의 정통 이탈리안 레스토랑. 생면 파스타를 비롯하여 다양한 메뉴를 현지 스타일로 맛볼 수 있다. 오픈한 지 얼마 안되어서 영업 시간의 변동이 있으니 가기 전에 인스타그램에서 확인하는 것이 좋다.,37.481877, 127.005955,02-6339-0770,2026-01-06 00:00:00,aaa
38,1,11,라칼라스,서울특별시 서초구 반포대로 8 (서초동) 삼흥빌딩 1층,"가볍게 이탈리아 요리를 즐길 수 있는 곳. 전채요리, 샐러드, 파스타, 피자, 디저트 외에도 다양한 코스요리가 준비되어 있다. 내부 공간은 소프라노 마리아 칼라스를 모티브로 하여 꾸몄다. 예술의 전당 티켓 제시 시 10% 할인을 받을 수 있다.",37.481701, 127.013163,02-521-3325,2026-01-06 00:00:00,aaa
39,1,12,앙젤리제,서울특별시 서초구 방배천로2안길 69 (방배동) 2층,"재료의 맛에 집중한 파스타를 맛볼 수 있는 레스토랑이다. 대표 메뉴는 지중해식통문어청양고추파스타로, 산미 있는 오일 소스와 먹물 파스타면, 쫄깃한 통문어, 칼칼한 청양고추가 들어간 파스타다. 피스타치오의 고소함을 느낄 수 있는 뇨키도 추천한다.",37.480250, 126.983843,0507-1458-3478,2026-01-06 00:00:00,aaa
40,1,12,벨아미,서울특별시 동작구 동작대로1길 15 (사당동) 지하 1층,"부담 없는 가격으로 이탈리안 코스 요리와 오마카세를 즐길 수 있는 레스토랑. 런치코스는 수프, 샐러드, 파스타 또는 리조토, 스테이크, 디저트로 구성돼 있고, 오마카세는 수프, 에피타이저, 미들, 파스타, 스테이크, 디저트로 구성돼 있다.",37.477337, 126.980470,0507-1432-1295,2026-01-06 00:00:00,aaa
41,1,13,톰볼라,서울특별시 서초구 서래로7길 16 (반포동),이탈리아식 가정식 요리와 피자를 맛볼 수 있는 곳. 24시간 이상 숙성시킨 도우 반죽을 화산재 모래로 만든 화덕으로 구워낸 피자가 바삭바삭하다. 구운 채소와 신선한 샐러드 채소가 함께 어우러진 그릴샐러드도 인기가 좋다.,37.499098, 126.997665,02-593-4660,2026-01-06 00:00:00,aaa
42,1,13,볼라레,서울특별시 서초구 사평대로20길 8 (반포동) 성훈빌딩,"친근하고 캐주얼한 느낌의 이탈리안 레스토랑. 나폴리피자협회 인증을 받은 곳으로, 화덕에 구운 정통피자를 제대로 맛볼 수 있다. 피자 이외에 다른 음식도 추천할 만하다. 마르게리타피자가 인기 메뉴다.",37.499189, 126.996957,02-537-1100,2026-01-06 00:00:00,aaa
43,1,13,르지우,서울특별시 서초구 사평대로26길 40 (반포동) 리윤빌딩 1층,"서래마을에서 오랫동안 인기를 끌고 있는, 정호균 셰프의 이탈리안 레스토랑이다. 다양한 가격대의 코스 메뉴도 있어 선택의 폭도 넓다. 파스타는 생면을 사용하며, 이즈니 버터로 맛을 낸 우니스파게티가 인기 있다.",37.498481, 126.998941,02-3476-7036,2026-01-06 00:00:00,aaa
44,1,13,뜨라또리아로마냐,서울특별시 서초구 사평대로14길 11 (반포동) 대성빌딩 2층,아담한 분위기의 가정식 이탈리안 레스토랑. 셰프가 직접 빚은 라비올리로 만든 로마냐라비올리가 대표 메뉴다. 라비올리 안에는 단호박으로 만든 소를 넣었다. 매일 아침마다 직접 제면한 생면 파스타를 사용한다.,37.500785, 126.995207,0507-1370-2944,2026-01-06 00:00:00,aaa
45,1,13,포폴라리타,서울특별시 서초구 사평대로22길 41 (반포동) 성운빌딩 1층,"서래마을의 터줏대감으로, 이탈리안 가정식 레스토랑 분위기를 즐길 수 있다. 다양한 파스타 외에도 호주산 소고기를 사용한 스테이크의 맛이 좋다. 저녁때는 와인을 즐기기에도 좋다.",37.497890, 126.997887,02-593-2340,2026-01-06 00:00:00,aaa
46,1,13,라디치,서울특별시 서초구 동광로39길 79 (반포동) 반포빌딩 2층,조용한 분위기에서 다양한 종류의 파스타와 와인을 즐길 수 있는 곳. 일본의 이탈리안 레스토랑에서 수련한 김성용 셰프가 클래식한 파스타를 선보인다. 짭짤한 어란이 들어간 어란 파스타가 대표 메뉴다. 파스타의 염도와 익힘 정도는 취향에 맞게 주문할 수 있다는 것도 참고할 것.,37.498736, 126.999503,02-6449-6755,2026-01-06 00:00:00,aaa
47,1,13,시실리,서울특별시 서초구 서래로 26 (반포동),"커피 맛이 훌륭하기로 인정받고 있는 핸드드립 커피 전문점. 몬순, 디카페인 등 생두를 볼 수 있으며 원두를 구매할 수도 있다. 수제버거, 파스타 종류 등의 식사 메뉴도 판매하고 있다.",37.499413, 126.998147,02-591-1929,2026-01-06 00:00:00,aaa
48,1,15,라마노피자,서울특별시 구로구 디지털로34길 55 (구로동) 코오롱싸이언스밸리2차 B119-1,"이탈리아식 화덕 피자 전문점으로, 칼조네도 맛볼 수 있는 곳. 카르보나라 칼조네는 빵 안에 치즈가 들어있으며, 살짝 찢어 소스에 찍어 먹으면 좋다. 파스타 메뉴도 다양하게 갖추고 있다.",37.4842965,126.8992595,02-866-2828,2026-01-06 00:00:00,aaa
49,1,16,루스티코,서울특별시 영등포구 당산로20길 3 (당산동1가),"라이브 생면 파스타를 전문으로 하는 곳으로, 이탈리아 가공육인 살루메를 활용한 파스타를 다양하게 선보인다. 계란 노른자를 활용해 직접 자가제면한 생면 파스타로 건면과는 다른 식감을 즐길 수 있다. 오리지널카르보나라가 추천 메뉴 중 하나.",37.5236001,126.8966459,02-6953-1575,2026-01-06 00:00:00,aaa
50,1,17,오네스타키친,서울특별시 영등포구 여의대방로65길 17 (여의도동) 서린빌딩,스파게티가 맛있기로 유명한 집. 가격대가 낮고 맛있는 파스타와 피자를 부담 없이 즐길 수 있다. 점심시간엔 항상 기다려야 먹을 수 있을 정도로 인기가 많다.,37.519935,126.929054,070-8754-3517,2026-01-06 00:00:00,aaa
51,1,17,을지다락(여의도점),서울특별시 영등포구 여의나루로 50 (여의도동),퓨전 파스타집인 을지다락의 여의도점. 느끼하지 않고 고소한 맛의 매콤크림파스타가 시그니처 메뉴. 밥 위의 동그란 오믈렛 비주얼이 돋보이는 오므라이스도 인기 메뉴 중 하나다.,37.5218307,126.9256238,0507-1479-1174,2026-01-06 00:00:00,aaa
52,1,17,59,서울특별시 영등포구 의사당대로 108 (여의도동) 아일렉스타워 지하 1층 12호,"카운터석으로만 되어 있는 파스타바 겸 와인바. 와인을 즐기기에도 좋은 분위기다. 마레올리오, 페스카토레, 파쉐, 블랙타이거슈림프로제 등 신선한 해산물을 많이 사용하는 것이 특징. 좌석이 많지 않아 예약하는 것을 추천한다.",37.522818, 126.924275,070-8648-1094,2026-01-06 00:00:00,aaa
53,1,18,논픽스,서울특별시 강서구 마곡중앙6로 10 (마곡동) 마곡역센트럴푸르지오시티 1층 102호,"와인바 같은 분위기에서 파스타를 즐길 수 있는 곳이다. 트러플 오일파스타가 인기 메뉴며, 라구파스타는 직접 만든 생면을 사용하여 라구 소스가 잘 스며들어 있다. 한우스테이크를 비롯한 다양한 메인 요리도 맛볼 수 있다.",35.8410508,128.6140554,010-5102-7893,2026-01-06 00:00:00,aaa
54,1,19,진동,서울특별시 양천구 목동동로12길 45 (목동) 목동삼익아파트 상가 1층 3호,"피자와 파스타를 다양하게 즐길 수 있는 이탈리아 레스토랑. 추천 메뉴로 짭짤하고 고소한 주꾸미오일파스타,  짭짤하면서도 매콤한 풍미에 트러플 향을 더한 트러플크림뇨키, 진한 전복으로 감칠맛을 낸 전복크림리조토가 있다.",37.5225207,126.876361,0507-1378-3186,2026-01-06 00:00:00,aaa
55,1,19,젠틀한식탁(목동본점),서울특별시 양천구 목동동로14길 6-1 (목동),"뇨키가 인기 있는 이탈리안 레스토랑. 살짝 구워서 크림 소스에 나오는 부드러운 뇨키를 맛볼 수 있으며, 뇨키 크림 소스에 빵을 찍어 먹는 것도 별미다. 파스타 종류도 다양하며 먹물아란치니나 부라타치즈구이 등을 곁들여도 좋다. 한우 채끝 스테이크도 부담없는 가격에 즐길 수 있다.",37.5242098,126.8721754,010-91037811,2026-01-06 00:00:00,aaa
56,1,20,솔트플러스39,서울특별시 강남구 개포로128길 33 (일원동) 1층 104호,"이탈리아에서 유학한 셰프가 오픈한 레스토랑. 홍합, 피스타치오, 바질 페스토가 들어가는 시칠리아식 홍합 피스타치오 파스타와 후추 소스가 곁들여진 후추 소스 스테이크 등을 맛볼 수 있다. 셰프 추천 코스로 진행되는 평일 런치 코스는 월, 화, 목요일에 준비되며 3인 이상 주문 가능하다.",37.4931341,127.0842278,0507-1469-4620,2026-01-06 00:00:00,aaa
57,1,21,덴테,서울특별시 송파구 법원로11길 11 (문정동) 문정현대지식산업센터1-1 A동 117호,"부담 없는 가격에 파스타를 즐길 수 있는 레스토랑이다. 대표 메뉴는 마늘종알리오올리오로, 다진 고기와 마늘종으로 식감을 살린 매콤한 맛의 파스타다. 이외에도 스테이크와 폴포 등 맥주와 와인을 곁들이기 좋은 메뉴가 준비되어 있다.",37.4853749,127.1180583,02-3400-0230,2026-01-06 00:00:00,aaa
58,1,21,라치오,서울특별시 송파구 동남로4길 20 (문정동) 상일빌딩 2층,"가성비 있게 이탈리안 요리를 즐길 수 있는 레스토랑이다. 시그니처는 디아블로라는 메뉴로, 김치볶음밥과 매콤한 양념을 발라 구운 치킨이 함께 나오는 메뉴다. 숯불 향이 강하게 밴 치킨과 김치볶음밥을 즐길 수 있다. 피자와 파스타도 많이 찾는다.",37.4883803,127.1245408,02-400-3031,2026-01-06 00:00:00,aaa
59,1,22,임뻬라또,서울특별시 송파구 올림픽로37길 130 (신천동) 파크리오아파트상가 308호,"정통 나폴리 화덕피자를 전문으로 하는 곳. 시금치와 그린살사소스가 들어간 임뻬라또피자와 고담, 카망베르, 모차렐라, 에멘탈 등 7종류의 치즈를 넣은 치즈몬스터피자 등이 인기 메뉴다. 두 가지 종류의 피자가 반반씩 나오는 하프앤하프피자도 추천.",37.5210357,127.1040755,02-420-2131,2026-01-06 00:00:00,aaa
60,1,22,비스트로베네토,서울특별시 송파구 위례성대로 58 (방이동) 올림픽베어스타운 1층,파스타 면까지 직접 만들어 사용하는 이탈리아음식 전문점. 합리적인 가격으로 수준 높은 이탈리아 요리를 맛볼 수 있어 인기다. 면의 탄력이 좋아 씹는 맛이 좋다. 생모차렐라 치즈가 가득 올려져 나오는 피자 메뉴도 훌륭하다.,37.5147665,127.1189449,0507-1344-4870,2026-01-06 00:00:00,aaa
61,1,22,래빗캐슬,서울특별시 송파구 백제고분로7길 52-29 (잠실동),"유럽 현지의 맛을 살린 파스타를 선보이는 이탈리안 레스토랑. 아늑한 분위기에서 저염 숙성한 백명란과 새우, 마늘이 들어간 명란 먹물파스타와 소불고기 트러플리조토, 라타투이뇨키 등을 맛볼 수 있다.",37.5094926,127.0851127,0507-1416-1114,2026-01-06 00:00:00,aaa
62,1,22,요리하는남자,서울특별시 송파구 백제고분로7길 27 (잠실동) 반석빌딩 지하 1층,"화덕피자가 인기 있는 곳으로, 루콜라와 불고기를 듬뿍 올린 비프&루콜라피자 등 개성 있게 변형한 피자를 맛볼 수 있다. 쫄깃한 도우 위에 얹어먹는 청포도리코타치즈도 인기 메뉴.",37.510818,127.081911,02-419-1511,2026-01-06 00:00:00,aaa
63,1,22,온량,서울특별시 송파구 백제고분로43길 4 (송파동) 1층,"풍미 있는 파스타 메뉴를 다양하게 선보이는 레스토랑. 스파이시로제파스타, 나폴리탄파스타, 아마트리치아나파스타 등 밸런스 있는 파스타를 맛볼 수 있다. 등심과 안심 부위를 튀겨낸 포크커틀렛을 선택해도 좋다.",37.507991,127.1100609,02-422-3642,2026-01-06 00:00:00,aaa
64,1,22,우드그린4717,서울특별시 송파구 위례성대로16길 10 (방이동),"옛날 오락실 기계, LP판, 주크박스 등의 소품으로 레트로한 분위기를 살린 이탈리안 레스토랑. 생면 파스타를 전문으로 한다. 계란과 치즈만을 사용한 정통카르보나라, 프로슈토루콜라피자 등이 추천 메뉴. 피자는 월요일을 제외한 나머지 요일에만 주문할 수 있으니 참고하면 좋다.",37.5119182,127.1246677,02-423-4717,2026-01-06 00:00:00,aaa
65,1,23,세이버릿,서울특별시 송파구 송파대로49길 50 (석촌동) 석촌호수 나인파크 B 2층,"점심에는 생면 파스타바로, 저녁에는 와인바로 운영되는 곳. 뇨키가 인기 메뉴로, 가쓰오부시와 치즈를 올려준다. 디너에만 맛볼 수 있는 메인 메뉴는 숯불에 조리하며, 디너는 주류 주문 필수다.",37.506341,127.0993964,070-8287-0388,2026-01-06 00:00:00,aaa
66,1,23,엘리스리틀이태리,서울특별시 송파구 백제고분로41길 43-21 (송파동) 산동빌딩 1층,"화덕피자와 파스타를 선보이는 이탈리안 레스토랑이다. 매장은 오픈 주방의 형태로 피자를 구워내는 큰 화덕이 눈에 띈다. 메뉴를 주문하면 화덕에서 구운 식전빵과 아란치니가 나온다. 피자는 쫄깃한 식감의 도우가 인상적이며, 파스타는 생선을 사용한 오일파스타를 추천한다.",37.5086445,127.1048472,0507-1462-1528,2026-01-06 00:00:00,aaa
67,1,24,키키,서울특별시 강동구 양재대로151길 18 (명일동) 라온빌딩 지하1층 키키,"캐주얼한 분위기에서 파스타와 브런치를 즐길 수 있는 곳. 제철나물을 넣은 파스타, 순대튀김 같이 한식 재료를 활용한 음식도 선보인다. 잠봉을 듬뿍 넣은 잠봉뵈르도 인기 메뉴다.",37.5540921,127.1431794,02-441-0901,2026-01-06 00:00:00,aaa
68,1,24,운삐아또,서울특별시 강동구 양재대로102길 39 (둔촌동) 1층,"약 10년째 운영 중인 이탈리안 비스트로로, 명일동에 이어 둔촌동으로 자리를 옮겨 문을 연 곳. 시그니처 메뉴는 고등어파스타로, 비리지 않으며 고등어 특유의 풍미가 오일파스타와 조화롭다는 평이다.",37.5322501,127.140448,0507-1401-1782,2026-01-06 00:00:00,aaa
69,1,24,우디파스타,서울특별시 강동구 양재대로143길 16 (명일동) 1층,1인 셰프가 운영하는 이탈리안 레스토랑이다. 바질 허브의 향이 살아있는 바질파스타와 라구소스와 감자퓨레를 곁들인 라자냐가 추천 메뉴다. 아담한 공간에서 여유롭게 식사를 즐길 수 있는 공간이다.,37.5026822,127.1110124,0507-1331-5749,2026-01-06 00:00:00,aaa
